[
  {
    "id": "1",
    "user_id": "2",
    "name": "稍甜 SYRUP LESS",
    "phone": "02-25472917",
    "address": "台北市松山區敦化北路145巷5號",
    "description": "純粹\n不斷重複動作 追求極致質感 \n\n高品質食材選用 細膩手法的單一品項\n內餡與餅皮的完美結合 是美好時光的最好陪襯\n\n層層堆疊超過三十層餅皮\n品嚐的每一口都是時間與食材結合的細緻風味\n\n季節選用與茶香茗品 \n我們追求更單純且值得回味的呈現",
    "sign_up_time": "2024-08-14 16:03:00",
    "logo_path": "SYRUP_LESS_logo.png",
    "longitude": "121.5496111",
    "latitude": "25.05384407"
  },
  {
    "id": "2",
    "user_id": "3",
    "name": "吃吃喝喝 MAISON GOURMANDE",
    "phone": "02-27691233",
    "address": "台北市松山區三民路153號",
    "description": "在法國\n喝紅酒、吃甜點\n是生活中不可或缺的一部分\n隨處可見的點心坊\n賣著各式各樣不同的小點心",
    "sign_up_time": "2024-08-15 12:04:00",
    "logo_path": "Maison_Gourmande_logo.jpg",
    "longitude": "121.5627668",
    "latitude": "25.06211468"
  },
  {
    "id": "3",
    "user_id": "4",
    "name": "艾波索 法式甜點",
    "phone": "02-23912036",
    "address": "台北市中正區鎮江街3號",
    "description": "《施比受更為有福》 \n是艾波索的企業標竿，這教導是源於聖經，使徒行傳20章35節。",
    "sign_up_time": "2024-08-15 12:04:00",
    "logo_path": "Aposo_logo.png",
    "longitude": "121.5564927",
    "latitude": "25.05175652"
  },
  {
    "id": "4",
    "user_id": "5",
    "name": "iFcake 如菓蛋糕",
    "phone": "02-27581373",
    "address": "台北市信義區松仁路228巷7弄18號",
    "description": "",
    "sign_up_time": "2024-08-15 12:04:00",
    "logo_path": "iFcake_logo.jpg",
    "longitude": "121.5688162",
    "latitude": "25.02532262"
  },
  {
    "id": "5",
    "user_id": "6",
    "name": "四維咖啡商號 Cafe4way",
    "phone": "02-37655088",
    "address": "台北市松山區民生東路五段69巷2之2號",
    "description": "歡迎來到咖啡商號的線上商店 \n我們目前有兩間實體店面 \n這邊架上的商品 \n絕大部分都可以在店裡可以享用得到 \n因為都是手工製作+接單生產 \n所以都需要至少五個工作天的時間 \n如果有大量的需求 \n歡迎直接加會員用Line聯繫喔",
    "sign_up_time": "2024-08-16 12:00:00",
    "logo_path": "cafe4way_logo.png",
    "longitude": "121.5579223",
    "latitude": "25.06052188"
  },
  {
    "id": "11",
    "user_id": "12",
    "name": "la vie bonbon 中山旗艦店",
    "phone": "02-25865388",
    "address": "台北市中山區林森北路644號",
    "description": "「la vie bonbon」\n「=人生因甜點而璀璨」\n我們所提供的甜點，嚴選食材、追求美味且感動消費者的五感。\n入口即化的蛋糕體、觸動舌尖的鮮奶油和慕斯，食材本身原始的香氣，令人眼睛為之一亮華麗外觀，加上些許玩心;是味覺和視覺的雙饗宴。 期許您的每一天從內到外自然洋溢出笑容，品嚐到打從「心底」滿足的美味。",
    "sign_up_time": "2024-08-13 13:17:00",
    "logo_path": "laviebonbon_logo.jpg",
    "longitude": "121.5255771",
    "latitude": "25.06810408"
  },
  {
    "id": "12",
    "user_id": "13",
    "name": "橘村屋",
    "phone": "02-23615228",
    "address": "台北市中正區北平西路3號",
    "description": "用好的材料作蛋糕，是一件理所當然的事情。烘焙最重要的是原料的選用，所以橘村屋嚴選如日本日清麵粉，澳洲起士，國產土雞蛋，紐西蘭奶油等具品質保證的原料，不管大環境如何變化，競爭如何激烈，堅持至今",
    "sign_up_time": "2024-08-13 17:36:00",
    "logo_path": "kitsumuraya_logo.jpg",
    "longitude": "121.5173991",
    "latitude": "25.0522377"
  },
  {
    "id": "13",
    "user_id": "14",
    "name": "羊毛與花．光點",
    "phone": "02-25620099",
    "address": "臺北市中山區中山北路2段18號1樓",
    "description": "原為大使館接待室，面對林木蓊鬱的庭園步道，現規劃為咖啡館，命名源自於日本療癒樂團 羊毛とおはな。",
    "sign_up_time": "2024-08-13 18:10:00",
    "logo_path": "youmoutoohana_Coffee.logo.jpg",
    "longitude": "121.521799",
    "latitude": "25.05439494"
  },
  {
    "id": "14",
    "user_id": "15",
    "name": "SEASON Artisan Pâtissier敦南旗艦店",
    "phone": "02-27085299",
    "address": "台北市大安區敦化南路一段295巷16號1樓",
    "description": "SEASON Artisan Pâtissier 於 2011年 8月品牌誕生\n在台北大直豪宅靜巷中發跡\n也是甜點市場中人氣居高不墜的話題品牌\n全台唯一提供多款現做盤式甜點的甜點概念餐廳\n以獨特的個性和精緻的產品廣受媒體和美食同好熱愛推崇",
    "sign_up_time": "2024-08-13 20:47:00",
    "logo_path": "SEASON_Artisan_Pâtissier_logo.jpg",
    "longitude": "121.5483768",
    "latitude": "25.04020392"
  },
  {
    "id": "15",
    "user_id": "16",
    "name": "L'idée Sweet 時甜（敦化店）",
    "phone": "02-27782712",
    "address": "台北市大安區忠孝東路四段216巷27弄12號",
    "description": "時甜擁有專業甜點師，採用當令食材，新鮮製作各式甜點。生乳捲、法式手工喜餅、生日蛋糕、彌月蛋糕，接受各式訂製！每一口都吃得到用心的蛋糕！採用法國鮮奶油、日本製麵粉、當季食材新鮮製作． 高人氣生日蛋糕訂購、頂級法式手工喜餅、彌月蛋糕禮盒等... 店內並有每日出爐生乳捲、戚風蛋糕、千層",
    "sign_up_time": "2024-08-14 08:18:00",
    "logo_path": "L'idee_Sweet_logo.jpg",
    "longitude": "121.5544273",
    "latitude": "25.0473399"
  },
  {
    "id": "16",
    "user_id": "17",
    "name": "法點法食FADENFASAï",
    "phone": "02-27085299",
    "address": "台北市大安區敦化南路一段295巷16號1樓",
    "description": "南法風格的溫馨咖啡甜點店\n乘載著對生活的堅持\n座落在台北汀州路舊城區的尾端\n每日現做的甜點與鹹派\n陳列在木造厚實樸質的櫃檯前\n美味閃閃發光、香氣撫慰療癒\n「我永遠記得，小時候母親用心製作的甜點，那種引出內在直接而真實的食慾。」\n主廚Ｐenny從12歲開始，就透過烘焙來連結記憶中的這份感動…..\n我們誠實地傳遞在每一份甜點的溫度，讓您感受到真實的滿足與美味。",
    "sign_up_time": "2024-08-14 13:07:00",
    "logo_path": "FADENFASAï_logo.png",
    "longitude": "121.5353552",
    "latitude": "25.01562202"
  },
  {
    "id": "17",
    "user_id": "18",
    "name": "點冰室·ジャビン",
    "phone": "907495158",
    "address": "台北市大同區承德路二段53巷33號",
    "description": "X",
    "sign_up_time": "2024-08-14 14:09:00",
    "logo_path": "Ice_room_logo.jpg",
    "longitude": "121.5188808",
    "latitude": "25.05643755"
  },
  {
    "id": "18",
    "user_id": "19",
    "name": "金雞母Jingimoo",
    "phone": "02-23939990",
    "address": "台北市大安區麗水街7巷11號",
    "description": "運用各種台灣食材與獨特技法，創作出美與味兼具的甜品與冰品，不定期推出新產品，讓客人能在不同季節品嚐當季甜點。",
    "sign_up_time": "2024-08-15 16:13:00",
    "logo_path": "Jingimoo_logo.png",
    "longitude": "121.5294761",
    "latitude": "25.03194386"
  },
  {
    "id": "19",
    "user_id": "20",
    "name": "果昂甜品",
    "phone": "02-25503515",
    "address": "台北市大同區萬全街1-8號",
    "description": "illuminé 〔法文〕 − 有吸引力的、發光、被照亮的 \n人的一生總有數不盡的閃耀時刻，從嬰兒誕生、成年禮、生日、各種節慶甚至是婚禮。在這些重要的日子裡，我們希望主角永遠是最耀眼最特別的那一顆星。 \n果昂 illuminé patisserie 就是為這一切而存在，我們用心製作每一份發光的甜點，獻給無數重要日子裡的主角。",
    "sign_up_time": "2024-08-15 19:11:00",
    "logo_path": "illumine_logo.png",
    "longitude": "121.5199108",
    "latitude": "25.06061743"
  },
  {
    "id": "20",
    "user_id": "21",
    "name": "倉鼠甜點工作室",
    "phone": "02-23213770",
    "address": "台北市中正區杭州南路一段14-7號",
    "description": "一間手作甜點工作室、一對意外進入烘培世界的情侶\n從喜愛甜點到捲起衣袖開始新手研發製作\n從滿足刁嘴家人的味蕾開始，低甜配方及天然食材\n嘴角上揚的幸福，溫暖笑容的樣子\n都是我們的小驕傲\n合作洽詢：hamsterdessert@gmail.com\nIG : @hamsterdessert",
    "sign_up_time": "2024-08-15 23:15:00",
    "logo_path": "HamsterDessert_logo.jpg",
    "longitude": "121.5258758",
    "latitude": "25.04153752"
  },
  {
    "id": "26",
    "user_id": "27",
    "name": "Miss V Bakery Cafe",
    "phone": "02-25597391",
    "address": "台北市大同區赤峰街49巷22號1樓",
    "description": "Miss V Bakery于2013年9月是由Virginia 和Veronica兩個從小一起長大的女生創立的品牌，主推手工喜餅、彌月禮盒、咖啡甜點輕食和外燴服務，Virginia以前在時尚界發展，Veronica則是專心的照顧家庭和小孩，喜歡美食的兩個人從未忘記小時候一起創業的夢想，在Virginia準備結婚的過程中，兩人試吃了所有市場上的喜餅，始終找不到滿意的品牌，就這樣決定親手做出符合自己理想的喜餅，瘋狂的構想，卻成就了Miss V Bakery，堅持使用最好的食材，希望做出來的手工餅乾和蛋糕，不是只有虛華的外包裝，而是內外兼具，吃一口會讓人感到幸福的美味，更是讓收到的賓客可以感受到新人的用心。 \n2015年初決定轉型為Miss V Bakery Café，Café于2015年7月正式開幕，型態屬於歐美的Bakery Café，每日提供新鮮出爐的糕點和現做輕食早餐，兼具咖啡店的舒適從容和早午餐店的菜單，適合朋友聚餐、家庭聚會和企業包場。2017年於敦化北路222巷拓展第二家店，一樣維持Bakery Café的型態，但以麵包為主、甜點為輔，更增設Miss V Cooking Studio做甜點和各式菜餚的教學。",
    "sign_up_time": "2024-08-15 22:53:00",
    "logo_path": "MissVBakeryCafe_logo.png",
    "longitude": "121.5202922",
    "latitude": "25.05573272"
  },
  {
    "id": "27",
    "user_id": "28",
    "name": "Monsieur Pierre皮耶先生•手作烘焙 晴光店",
    "phone": "927870093",
    "address": "台北市中山區雙城街10巷13-6號",
    "description": "主廚皮耶先生從小對料理、美食充滿興趣，為了追求更頂尖的手藝，遠赴法國藍帶廚藝學校學習正統法式烘培。\n擁有貨真價實的「法國巴黎藍帶糕及證書」專業知識，完整呈現正統法式烘焙技術，讓您無須遠赴法國，也能輕鬆品嚐到經典法式風味。\n皮耶先生持續研發、精進產品，對每個製作環節上講究完美的堅持，就是為了讓更多喜愛【皮耶先生．手作烘焙】的顧客，都能夠品嚐到頂級法式甜點。",
    "sign_up_time": "2024-08-15 22:09:00",
    "logo_path": "MonsieurPierre_logo.png",
    "longitude": "121.5240455",
    "latitude": "25.06430015"
  },
  {
    "id": "28",
    "user_id": "29",
    "name": "Crew'sDessert空服員的手作甜點",
    "phone": "02-25590200",
    "address": "台北市大同區南京西路73號1樓",
    "description": "減糖丶低負擔、安心，樸實不特別華麗，但注重細節的甜點品牌",
    "sign_up_time": "2024-08-15 12:16:00",
    "logo_path": "Crew'sDessert_logo.jpg",
    "longitude": "121.5188341",
    "latitude": "25.05322989"
  },
  {
    "id": "29",
    "user_id": "30",
    "name": "歐卡諾諾 `O ka roll roll",
    "phone": "987814522",
    "address": "台北市中山區中山北路二段20巷15號3F",
    "description": "打開甜點控心中的那把鑰匙",
    "sign_up_time": "2024-08-15 12:11:00",
    "logo_path": "`OKaRollRoll_logo.png",
    "longitude": "121.5210681",
    "latitude": "25.05378144"
  },
  {
    "id": "30",
    "user_id": "31",
    "name": "bonniesugar手作甜點專門店",
    "phone": "02-23935606",
    "address": "台北市中正區北平東路9號",
    "description": "簡單樸實的手工甜點，沒有炫目的華麗裝飾，這就是Bonnie sugar的初衷",
    "sign_up_time": "2024-08-15 12:02:00",
    "logo_path": "BonniesSugar_logo.jpg",
    "longitude": "121.5235269",
    "latitude": "25.046650469877672,"
  },
  {
    "id": "31",
    "user_id": "32",
    "name": "ChizUp!",
    "phone": "985753664",
    "address": "台北市士林區承德路四段80巷27號",
    "description": "創造樂趣，每天都值得慶祝！\n一位甜點主廚、一位設計人、一位行銷公關，三個不同職業但具相同品味的大男人，在某次聚會中談論起「最好吃的起司蛋糕」因而擦出了 ChizUP! 誕生的火花。\n為了研發出大家有志一同心中所謂「最好吃的起司蛋糕」，接下來即展開了一段漫長的起司之旅。他們飄洋過海飛去紐約，從市調試吃、尋覓食材、製作技術，探訪傳說中起司蛋糕的秘密。幾番尋覓下，終於在一家百年老店找到「就是這個味道」，誕生了經典而獨家之 ChizUP! 靈魂。\nRay 主廚耗時六個月，將百年歷史的重乳酪做為貫穿整個品牌的靈魂配方，並且嚴選了各種高級食材將其融合，陸續研發推出經典起司蛋糕以外的多樣口味。\nLouie 發揮其擅長的品牌設計，為各款色的起司蛋糕裝點創意時尚外衣，希望在享受「好吃卻不過眼」的起司蛋糕時，也能體驗視覺上的樂趣，為平凡的每一天，創造精美的甜好時光。\n於是，2015 年 10 月，ChizUP! 美式濃郁起司蛋糕，正式在台北登場！",
    "sign_up_time": "2024-08-14 20:00:00",
    "logo_path": "ChizUp_logo.webp",
    "longitude": "121.5223479",
    "latitude": "25.082427686299116,"
  },
  {
    "id": "32",
    "user_id": "33",
    "name": "芝玫蛋糕",
    "phone": "02-2835-6956",
    "address": "台北市士林區德行東路89號",
    "description": "幸福、食在、好芝味",
    "sign_up_time": "2024-08-14 20:16:00",
    "logo_path": "chessmate_logo.jpg",
    "longitude": "121.5279026",
    "latitude": "25.10772569"
  },
  {
    "id": "33",
    "user_id": "34",
    "name": "Cup’o Story 故事點心坊",
    "phone": "968802364",
    "address": "台北市士林區中正路236巷4號",
    "description": "士林巷弄，甜點鹹派，屬於你的故事點心。",
    "sign_up_time": "2024-08-14 20:24:00",
    "logo_path": "cupostory_logo.png",
    "longitude": "121.5250956",
    "latitude": "25.09717111"
  },
  {
    "id": "34",
    "user_id": "35",
    "name": "Souvenir 絲芙妮洋菓子工房",
    "phone": "02-28858090",
    "address": "台北市士林區劍潭路76號",
    "description": "位於台北劍潭巷子裡的小小烘焙工作室，提供日本師傅每日現作的限量生菓",
    "sign_up_time": "2024-08-14 20:33:00",
    "logo_path": "souvenir_logo.jpg",
    "longitude": "121.5211374",
    "latitude": "25.0831566"
  },
  {
    "id": "35",
    "user_id": "36",
    "name": "躺著吃烘焙坊",
    "phone": "902321612",
    "address": "台北市士林區通河東街二段4號地下樓",
    "description": "手工法式甜點",
    "sign_up_time": "2024-08-14 20:39:00",
    "logo_path": "laydown_logo.jpg",
    "longitude": "121.5154712",
    "latitude": "25.09109014"
  },
  {
    "id": "36",
    "user_id": "37",
    "name": "M PAPA KITCHEN 手作甜點",
    "phone": "916143899",
    "address": "台北市士林區中山北路五段92-1號1樓",
    "description": "挑戰你的意志力是否堅定\n邪惡又好吃的法式甜點",
    "sign_up_time": "2024-08-14 20:48:00",
    "logo_path": "mpapa_logo.png",
    "longitude": "121.5275133",
    "latitude": "25.08471302"
  },
  {
    "id": "37",
    "user_id": "38",
    "name": "Ami de bonbons 阿米手作蛋糕",
    "phone": "02-28385031",
    "address": "台北市士林區忠義街32號",
    "description": "每日新鮮手作甜點供應",
    "sign_up_time": "2024-08-14 20:54:00",
    "logo_path": "ami_logo.jpg",
    "longitude": "121.5315456",
    "latitude": "25.105809834302402, 121.53154562087244"
  },
  {
    "id": "38",
    "user_id": "39",
    "name": "Aki matcha bar",
    "phone": "02-28868628",
    "address": "台北市士林區承德路四段10巷18號",
    "description": "『本格お抹茶と手作り洋菓子のお店』",
    "sign_up_time": "2024-08-14 21:00:00",
    "logo_path": "aki_logo.jpg",
    "longitude": "121.5226668",
    "latitude": "25.07997791"
  },
  {
    "id": "39",
    "user_id": "40",
    "name": "On the Road 義式手工冰淇淋專賣店",
    "phone": "02-28752717",
    "address": "台北市士林區忠誠路二段136號",
    "description": "嚴選頂級食材，極致味蕾饗宴",
    "sign_up_time": "2024-08-15 09:35:00",
    "logo_path": "onTheRoad_logo.jpg",
    "longitude": ", 121.53260214848311",
    "latitude": "25.11460373"
  },
  {
    "id": "40",
    "user_id": "41",
    "name": "花磚甜點",
    "phone": "02-28760049",
    "address": "台北市士林區忠誠路二段154巷7號1樓",
    "description": "真誠、手作、分享",
    "sign_up_time": "2024-08-15 09:39:00",
    "logo_path": "mosaicPastry_logo.jpg",
    "longitude": "121.5326451",
    "latitude": "25.11529346"
  },
  {
    "id": "41",
    "user_id": "42",
    "name": "Timchi's週末肉桂捲",
    "phone": "",
    "address": "台北市南港區中南街50號",
    "description": "常溫甜點•辦公室點心•禮盒",
    "sign_up_time": "2024-08-15 11:56:00",
    "logo_path": "Timchis_Weekend_Cinnamon_logo.jpg",
    "longitude": "121.6152082",
    "latitude": "25.05397275"
  },
  {
    "id": "42",
    "user_id": "43",
    "name": "給冷鴿手作甜點",
    "phone": "02-26517080",
    "address": "台北市南港區中南街127號",
    "description": "給冷鴿工作室 每天限量甜點 粗獷的作法細膩的口感 只求在不寧靜的世界裡 覓得最平靜的所在",
    "sign_up_time": "2024-08-15 12:08:00",
    "logo_path": "Give_Cold_Bird_logo.jpg",
    "longitude": "121.6153113",
    "latitude": "25.05215319"
  },
  {
    "id": "43",
    "user_id": "44",
    "name": "芙芙法式甜點 Escape from Paris",
    "phone": "02-26275232",
    "address": "台北市內湖區內湖路一段388號2樓",
    "description": "甜點藝術可以是優雅的、夢幻的，卻帶有瘋狂的實驗精神。逃離巴黎的白色甜蜜旅程，就此展開⋯",
    "sign_up_time": "2024-08-15 14:24:00",
    "logo_path": "Escape_From_Paris_logo.jpg",
    "longitude": "121.5723084",
    "latitude": "25.08159063"
  },
  {
    "id": "44",
    "user_id": "45",
    "name": "Pâtisserie Mon Cœur甜心嚐甜點坊",
    "phone": "02-27941589",
    "address": "台北市內湖區內湖路二段209號",
    "description": "精緻波士頓蛋糕｜生日蛋糕｜伴手禮\n.\n100%動物性鮮奶油使用\n以天然食材手作最優雅的甜點\n.\n公休日見官網首頁公告\n預訂取貨1100～1930\n外帶1200～1930\n內用1300～1830\n.\n低消為1人1片現場冷藏蛋糕或1杯飲品\n店內空間有限，不適合多人聚會\n寵物友善",
    "sign_up_time": "2024-08-15 14:32:00",
    "logo_path": "Patisserie_Mon_Coeur_logo.jpg",
    "longitude": "121.5887879",
    "latitude": "25.08279556"
  },
  {
    "id": "45",
    "user_id": "46",
    "name": "Zealu Cake",
    "phone": "02-26333001",
    "address": "台北市內湖區星雲街175號",
    "description": "ZEALU代表熱情生命之意，熱忱對待別人，品牌創立人LUMI LU崇尚健康美食，因為體質對化學物質嚴重過敏，平時會盡量選擇天然有機的食品，很少食用有添加物和加工類食品，但又熱愛蛋糕甜點這個稱不上健康食品的精緻食物，對於市售蛋糕甜點大量使用食品添加物，不敢輕易嘗試。而想滿足吃蛋糕的慾望又想保持身體健康，維持好身材，於是觸動了自己研發無添加物蛋糕的起念。",
    "sign_up_time": "2024-08-15 15:21:00",
    "logo_path": "Zealu_Cake_logo.png",
    "longitude": "121.5972054",
    "latitude": "25.08158514"
  },
  {
    "id": "46",
    "user_id": "47",
    "name": "灣仔湖製果烘焙工坊",
    "phone": "02-27951689",
    "address": "台北市內湖區民權東路六段136巷37弄3號1樓",
    "description": "",
    "sign_up_time": "2024-08-15 15:59:00",
    "logo_path": "Wanzaihu_logo.jpg",
    "longitude": "121.5880501",
    "latitude": "25.06748867"
  },
  {
    "id": "47",
    "user_id": "48",
    "name": "Gustave & Henri｜古斯塔亨利",
    "phone": "02-87922953",
    "address": "台北市內湖區金湖路34號",
    "description": "古斯塔·亨利堅持僅用純天然食材來製做精緻法式鹹甜點心，無國界應季食材，一切純正新鮮… 古斯塔·亨利點心好吃的秘訣在真材實料，我們知道用純正樸實的原料做出來的點心就是比較好吃。因此我們串聯了8個國家10個城市，細心的尋找能夠提供最優質食材的農場已及供應商跟我們合作，一同達成這個美好理想。我們相信您一定能品嘗的出我們的好，真實的美好…",
    "sign_up_time": "2024-08-15 22:23:00",
    "logo_path": "Gustave_Henri_logo.jpg",
    "longitude": "121.5966257",
    "latitude": "25.08304568"
  },
  {
    "id": "48",
    "user_id": "49",
    "name": "Thé 13",
    "phone": "02-85015573",
    "address": "台北市中山區樂群三路200號1樓",
    "description": "「thé 13 蝶13」揉合東方傳統茶飲與法式甜點文化，命名靈感來自法文的茶 Thé，融匯 13hill 的原創精神，進化蛻變為全新茶甜點品牌，突顯品牌專注於新時代飲茶文化之推廣。\n\n「thé 13 蝶13」的主視覺是一隻正在翩翩飛舞的蝴蝶，品牌精神源自於「莊周夢蝶」哲學論點，事物的轉變、真實與虛幻之間，其實可以由自己定義，有如「Thé 13 蝶13」的茶甜點般，當你在喝茶的同時卻也吃到了甜點，在這模糊的界線裡，將代表東方人文精神的「茶」，結合代表法式優雅的「甜點」，是在喝茶還是吃甜點，交給每一位品嚐者體會。",
    "sign_up_time": "2024-08-15 22:30:00",
    "logo_path": "The_13_logo.jpg",
    "longitude": "121.5567596",
    "latitude": "25.08265625"
  },
  {
    "id": "49",
    "user_id": "50",
    "name": "貝蕾麥麥",
    "phone": "02-25339399",
    "address": "台北市中山區北安路588巷30弄12號",
    "description": "les blés de mai\n法文的意思是\n五月的麥穗\n綠色的麥穗是即將變成金黃色前\n美麗的序曲\n是等待收成前充滿希望的期待\n就像面對充滿荊棘的世界\n也要隨時樂觀對待\n\n每一條貝蕾麥麥的蛋糕\n都是由廷達師傅手作完成\n廷達師在烘焙業歷練10年\n因為疫情\n回到台灣家鄉創業\n他相信\n好甜點具有療癒心靈的神奇力量\n所以全力追求卓越的美味\n貝蕾麥麥特別選用\n法國鮮奶油及日本北海道麵粉製成\n每一條蛋糕都充滿師傅的用心與細心\n每一口都讓人驚豔",
    "sign_up_time": "2024-08-15 22:17:00",
    "logo_path": "Lesbles_logo.jpg",
    "longitude": "121.5505237",
    "latitude": "25.08090971"
  },
  {
    "id": "50",
    "user_id": "51",
    "name": "安娜法蘭 VEGANNA 純素法式甜點",
    "phone": "936368552",
    "address": "台北市文山區萬利街7號",
    "description": "美好的甜點 始於原味\nVEGAN 純植物性｜有機與安心食材｜純淨自然｜無奶蛋｜無大豆｜無人工香精色素｜減油減糖\n適合所有人在任何時間享用",
    "sign_up_time": "2024-08-15 22:09:00",
    "logo_path": "Veganna_logo.png",
    "longitude": "121.5647949",
    "latitude": "25.01505655"
  },
  {
    "id": "51",
    "user_id": "52",
    "name": "beard papa's",
    "phone": "287723582",
    "address": "台北市大安區忠孝東路三段300號SOGO 復興館B3",
    "description": "日本No.1泡芙品牌 | beard papa's日式泡芙專賣店\n美味「泡芙甜點」下午茶首選 !\n\n1999年創立於日本福岡，並於2002年正式進軍海外市場，目前已於全世界設立超過400家分店。\n\n門市遍及台灣、韓國、新加坡、泰國、美國、加拿大等國家，為全球性規模品牌。\n\nbeard papa’s深耕台灣20年以上，設立超過20間門市，未來也將持續展店，\n\n致力提供新鮮現做、安心享用的優質泡芙，希望讓每位粉絲都能擁有饗芙・享福的美味體驗!",
    "sign_up_time": "2024-08-05 11:51:00",
    "logo_path": "beardpapas_logo.png",
    "longitude": "121.5432364",
    "latitude": "25.04132973"
  },
  {
    "id": "52",
    "user_id": "53",
    "name": "深夜裡的法國手工甜點",
    "phone": "223673067",
    "address": "台北市大安區金山南路二段141巷1號",
    "description": "真材實料超人氣手工甜點",
    "sign_up_time": "2024-07-17 01:48:00",
    "logo_path": "深夜裡的法國手工甜點_logo.jpg",
    "longitude": "121.528319",
    "latitude": "25.033963"
  },
  {
    "id": "53",
    "user_id": "54",
    "name": "CHIFFON手工蛋糕店",
    "phone": "227160138",
    "address": "台北市中山區龍江路77號",
    "description": "台北第一家專賣日式戚風蛋糕的店",
    "sign_up_time": "2024-08-12 05:05:00",
    "logo_path": "CHIFFON_logo.jpg",
    "longitude": "121.540683",
    "latitude": "25.057731"
  },
  {
    "id": "54",
    "user_id": "55",
    "name": "法國廚師的甜點Nosif",
    "phone": "936811888",
    "address": "台北市松山區延壽街89號",
    "description": "法國廚師的甜點\n法國廚師Nosif和太太Teresa 成立2018年的法式甜點小店，位在台北市民生社區",
    "sign_up_time": "2024-07-19 23:44:00",
    "logo_path": "法國主廚的甜點Nosif_logo.jpg",
    "longitude": "121.5675247",
    "latitude": "25.05742376"
  },
  {
    "id": "55",
    "user_id": "56",
    "name": "法國的秘密甜點 微風北車店",
    "phone": "223118990",
    "address": "10041台北市中正區北平西路3號",
    "description": "憑著一顆熱愛甜點的心，法國的秘密甜點 開業以來一直秉持初衷，要在平凡中造就不平凡的極致美味。\n堅持選用來自法國的頂級原料，用心把細節做到最好，並專注於每個研發的產品，終於成就了 法國的秘密甜點 每一款蛋糕都好吃的傳奇",
    "sign_up_time": "2024-07-29 11:18:00",
    "logo_path": "thesecretcake_logo.png",
    "longitude": "121.5176178",
    "latitude": "25.04772374"
  },
  {
    "id": "56",
    "user_id": "57",
    "name": "松薇 PINE&ROSE",
    "phone": "223569938",
    "address": "106005台北市大安區麗水街28-1號1樓",
    "description": "\"PINE&ROSE，パインアンドローズ，松樹與薔薇，陽剛與矜貴呈現出有趣的反差，兩大代表植物道出松薇食品有限公司的企業精神，期盼松薇的經營可以如松樹般長壽茁壯，風格如薔薇般優雅芬芳。 \n創辦人謝秉勛為台灣老牌食品廠第四代，不受家族事業羈絆的他，旅居日本中部城市名古屋三年，在名古屋製菓專門學校修習日式洋菓子近百種，在此期間深刻感受到日本職人對於專業的態度與堅持，由衷敬佩之餘亦能自我內化，將此精神深入到製菓的每個步驟、每個製程，以及每個細節。 \n在考取日本愛知縣製菓衛生師資格之後返台，選擇在鬧中取靜的台北市大安區麗水街開設松薇 PINE&ROSE的一號店，深受悠久日本文化與嚴格職人精神影響的創辦人，對於設備、食材、技術與態度近乎偏執的堅持，為松薇食品奠定堅實而穩固的基礎。 \n“希望松薇是台北市最接近日式洋菓子的地方”我們如此自我期許著...",
    "sign_up_time": "2024-08-12 12:47:00",
    "logo_path": "松薇_logo.png",
    "longitude": "121.5287592",
    "latitude": "25.02919488"
  },
  {
    "id": "57",
    "user_id": "58",
    "name": "畬室法式巧克力甜點創作 YU CHOCOLATIER",
    "phone": "227010792",
    "address": "106台北市大安區仁愛路四段112巷3弄10號",
    "description": "Yu Chocolatier‧畬室\n「Yu Chocolatier‧畬室」取自創辦人暨主廚 鄭畬軒之名。「畬」，音同余，意指山中涵養數年的沃田，自有盎然飽滿之華。\n「Yu Chocolatier‧畬室」以味為道，專注呈現精緻巧克力本味與多樣風土食材的融合之美。自2015年創立後，融匯東西文化，獲多項國際殊榮，不斷探索、創造具國際語彙的臺灣巧克力。",
    "sign_up_time": "2024-07-18 15:00:00",
    "logo_path": "畬室法式巧克力甜點創作_logo.jpg",
    "longitude": "121.5506963",
    "latitude": "25.03728806"
  },
  {
    "id": "58",
    "user_id": "59",
    "name": "quelques pâtisseries某某甜點（法式甜點外帶店）",
    "phone": "227111102",
    "address": "106台北市大安區仁愛路四段345巷4弄7號",
    "description": "名字或許在時間的長河裡佚散\n在語言的罅隙中溜走\n迷人的風味卻牢牢鐫刻在記憶裡\n某某 甜點不僅帶你回到某地、某時與某人共享的甜蜜時光，\n也將從此成為你回憶寶盒中另一個閃光片刻。",
    "sign_up_time": "2024-07-17 14:42:00",
    "logo_path": "Quelques_logo.jpg",
    "longitude": "121.5544917",
    "latitude": "25.03917817"
  },
  {
    "id": "59",
    "user_id": "60",
    "name": "卡啡那 內湖啟航館",
    "phone": "add",
    "address": "114台北市內湖區洲子街79號",
    "description": "卡啡那CAFFAINA創始於2012年，致力於提供有別於傳統咖啡館的消費體驗，注重咖啡師與顧客之間的互動，商品的開發與創新，咖啡文化的氛圍感動。\n每一杯咖啡因為我們的努力，賦予了更多的想像空間，及更多美好生活的詮釋，so caffaina so life。\nCAFFAINA衍生於咖啡因的義大利文，我們提供COFFEE GALLERY的空間，讓在這裡放下腳步的人擁有自己的時間。",
    "sign_up_time": "2024-08-06 23:08:00",
    "logo_path": "卡啡那_logo.jpg",
    "longitude": "121.5718329",
    "latitude": "25.08040444"
  },
  {
    "id": "60",
    "user_id": "61",
    "name": "Sugar Miss",
    "phone": "227715320",
    "address": "106台北市大安區光復南路290巷4號1樓",
    "description": "Sugar Miss 是由一位愛小孩的暖心爸爸所創辦，秉持給小孩最好的信念，採用天然食材，製作過程不添加人工香料和防腐劑，每一口都能感覺到真材實料與滿滿的幸福感。\n猶如藝術品的大理石，看似冰冷難以親近，\nSugar Miss 將其意境融入甜點，中和彼此的冷酷與甜膩。",
    "sign_up_time": "2024-07-19 01:32:00",
    "logo_path": "sugar_logo.png",
    "longitude": "121.5571562",
    "latitude": "25.03970213"
  },
  {
    "id": "63",
    "user_id": "62",
    "name": "F2 法式甜點",
    "phone": "225119550",
    "address": "台北市中山區民權西路70巷15號",
    "description": "品牌理念 \nPatisserie F2 藍帶主廚用分享家人及朋友的理念來精心研製法式甜點。 \nF2 means for Families & Friends.",
    "sign_up_time": "2024-08-15 04:20:00",
    "logo_path": "F2_logo.jpg",
    "longitude": "121.5198591",
    "latitude": "25.06675435"
  },
  {
    "id": "64",
    "user_id": "63",
    "name": "Greedy Beagle 貪吃狗甜點",
    "phone": "900480856",
    "address": "台北市中山區民生西路66巷15號1樓",
    "description": "甜點最好吃的秘訣就是烘培的溫度 \nGREEDY BEAGLE \n有獨家烘培溫度、嚴選頂級原料 \n更是活用台灣的在地食材 \n將甜點發揮到最極致的完美",
    "sign_up_time": "2024-08-15 06:15:00",
    "logo_path": "greedyDog_logo.jpg",
    "longitude": "121.520177",
    "latitude": "25.06024104"
  },
  {
    "id": "65",
    "user_id": "64",
    "name": "好丘 GOOD CHO's",
    "phone": "225856661",
    "address": "台北市中山區玉門街1號",
    "description": "源自 — 簡單生活節 \n做喜歡的事，讓喜歡的事有價值。 \n所以 好丘 \n好的人事物聚集成丘。",
    "sign_up_time": "2024-08-15 05:20:00",
    "logo_path": "GOODCHO_logo.png",
    "longitude": "121.5213731",
    "latitude": "25.07679363"
  },
  {
    "id": "66",
    "user_id": "65",
    "name": "東京巴黎甜點",
    "phone": "225210058",
    "address": "台北市中山區南京東路二段25號",
    "description": "東京巴黎甜點品牌故事 \n來自巴黎時尚技術與日本東京細緻工法的結合 \n憑著對甜點的熱情與堅持 \n一本初衷將30年深厚情感與功力 \n賦予甜點充滿「愛」的生命力",
    "sign_up_time": "2024-08-15 04:01:00",
    "logo_path": "東京巴黎甜點_logo.png",
    "longitude": "121.5275475",
    "latitude": "25.05865979"
  },
  {
    "id": "67",
    "user_id": "66",
    "name": "時飴Approprie",
    "phone": "981900695",
    "address": "台北市大安區仁愛路四段105巷7號",
    "description": "「時飴Approprié」\n\nApproprié在法文裡有著「合乎時宜」的意涵\n\n盡情感受點點滴滴，將幸福的滋味化為靈感，\n時飴，以捕捉時間流轉的浪漫為創作美學，\n包裹著自然時節、生活記憶、風土氣味的甜點，\n流露著時間蛻變的韻味。",
    "sign_up_time": "2024-08-15 03:23:00",
    "logo_path": "Approprie_logo.png",
    "longitude": "121.5489256",
    "latitude": "25.04343459"
  },
  {
    "id": "68",
    "user_id": "67",
    "name": "提拉米蘇精緻蛋糕",
    "phone": "225586758",
    "address": "台北市大同區承德路一段55號",
    "description": "傳說中\"提拉米蘇\"的由來； 在一個征戰的年代，一個煙硝瀰漫的異鄉國度，妻子為了即將遠行的丈夫， 將家裡僅剩的乳製品做成一份充滿愛心的甜點~~~ 提拉米蘇意味著「帶我走」 ，雖然無法將我帶走，也將我虔誠的心意帶走。用我誠摯的心化成上天的悲憫請求，佑我心愛的人，平安歸來。是浪漫的、是愛情的一種傳說。",
    "sign_up_time": "2024-08-15 05:30:00",
    "logo_path": "tiramisu_logo.png",
    "longitude": "121.5175107",
    "latitude": "25.05381634"
  },
  {
    "id": "69",
    "user_id": "68",
    "name": "Mon dessert",
    "phone": "",
    "address": "台北市中山區雙城街49巷10-2號1樓",
    "description": "MON源自法文「我的」意思，在中文音相似「夢」。 \n我們將這間工作室意欲為關於「我的」任何事物， \n像是我的夢想、我的信念、我的期許等等...。",
    "sign_up_time": "2024-08-15 04:40:00",
    "logo_path": "Mon_dessert_logo.jpg",
    "longitude": "121.5256656",
    "latitude": "25.07366183"
  },
  {
    "id": "70",
    "user_id": "69",
    "name": "HUGH dessert dining",
    "phone": "225980223",
    "address": "台北市大同區重慶北路三段136巷56號",
    "description": "HUGH dessert dining 是台灣一間少見的盤式甜點餐廳，位於台北的大同區，以套餐形式呈現六至七道甜點，其中包含開胃菜、主菜、伴茶小點。HUGH dessert dining跟著春夏秋冬四季變換店內菜單，運用台灣在地豐饒的季節蔬果創造出各式各樣令人驚豔的甜點創作，期望提供客人一場別出心裁的甜點體驗。",
    "sign_up_time": "2024-08-15 05:10:00",
    "logo_path": "HUGHdessertdining_Logo.png",
    "longitude": "121.5124466",
    "latitude": "25.06952183"
  },
  {
    "id": "71",
    "user_id": "70",
    "name": "Lady M",
    "phone": "027730-8660",
    "address": "台北市中山區中山北路二段39巷3號",
    "description": "來自紐約的Lady M\n帶來幸福感的精品級千層蛋糕",
    "sign_up_time": "2024-08-15 06:45:00",
    "logo_path": "ladyM_logo.png",
    "longitude": "121.5239147",
    "latitude": "25.05435222"
  },
  {
    "id": "72",
    "user_id": "71",
    "name": "Her Rose",
    "phone": "225594033",
    "address": "台北市大同區赤峰街53巷21號1樓",
    "description": "想成為喧囂城市中最清澈的綠洲 \n灌溉滋養馥郁滿溢的玫瑰園",
    "sign_up_time": "2024-08-15 07:03:00",
    "logo_path": "HerRose_logo.png",
    "longitude": "121.5206862",
    "latitude": "25.05637588"
  },
  {
    "id": "73",
    "user_id": "72",
    "name": "Habibi macaron 馬卡龍",
    "phone": "225681088",
    "address": "台北市中山區南京西路12號",
    "description": "烘焙讓我們從忙碌的現實中脫離、放鬆心靈的時間。我成長於喜愛家庭料理的環境，母親時時都為孩子們準備豐盛的手工烘焙甜點。在我的記憶中，廚房總是飄來令人愉悅的香氣，各式的香料、融化的奶油和巧克力令人垂涎的滋味，一個充滿多樣風味和繽紛色彩的世界。對我來說享受甜點是探索、是放鬆、也是幸福。",
    "sign_up_time": "2024-08-15 07:15:00",
    "logo_path": "Habibi_macaron_logo.jpg",
    "longitude": "121.5223001",
    "latitude": "25.05266886"
  },
  {
    "id": "74",
    "user_id": "73",
    "name": "疍宅Egghost三元店",
    "phone": "225215361",
    "address": "台北市中正區三元街176號1樓",
    "description": "「疍=蛋」是甜點的靈魂。\n我們是宅，希望你進來就像回到家\n還有三隻可愛的貓貓陪你一起廢～～～～",
    "sign_up_time": "2024-08-15 00:35:00",
    "logo_path": "Egghost_logo.png",
    "longitude": "121.5117681",
    "latitude": "25.03263882"
  },
  {
    "id": "75",
    "user_id": "74",
    "name": "莫糖子手作甜點坊 MORTOUJI Dessert",
    "phone": "225921339",
    "address": "台北市中山區德惠街6之1號9 樓",
    "description": "菲莫琳的手作甜點受到廣大回響，於是在2021年9月，我們創立了甜點品牌「莫糖子Mortouji」，我們選用好品質的原料並堅持手工製作，希望透過手作甜點傳遞「更多甜美、溫暖與幸福」、記憶「更多的當時」，讓莫糖子甜點為您留住每一個值得紀念、圓滿的美好時刻。純手工製作，是我們的堅持，有點傻的職人精神，相信吃過的朋友們一定能了解。",
    "sign_up_time": "2024-08-15 00:43:00",
    "logo_path": "MORTOUJIDessert_logo.png",
    "longitude": "121.5256818",
    "latitude": "25.07137447"
  }
]
